[
  {
    "loc_id": 0.0,
    "title": "FBWM - Warehouse",
    "type": "Warehouse",
    "street1": "97 North Hatfield Rd",
    "city": "Hatfield",
    "zip": "01038",
    "state": "MA",
    "long": -72.61476460017975,
    "lat": 42.39801299365277 
  },
  {
    "loc_id": 1.0,
    "title": "Amherst Survival Center",
    "type": "Agency",
    "street1": "138 Sunderland Road",
    "city": "Amherst",
    "zip": "01002",
    "state": "MA",
    "long": -72.53289,
    "lat": 42.41472
  },
  {
    "loc_id": 2.0,
    "title": "Palmer Food Share, Inc.",
    "type": "Agency",
    "street1": "39 Walnut Street",
    "city": "Palmer",
    "zip": "01069-1731",
    "state": "MA",
    "long": -72.32591,
    "lat": 42.15824
  },
  {
    "loc_id": 3.0,
    "title": "Franklin County Community Meals Program",
    "type": "Agency",
    "street1": "118 East Main Street",
    "city": "Orange",
    "zip": "01364",
    "state": "MA",
    "long": -72.30477,
    "lat": 42.5904
  },
  {
    "loc_id": 4.0,
    "title": "Freedom House of God",
    "type": "Agency",
    "street1": "563 Union Street",
    "city": "Springfield",
    "zip": "01139-0187",
    "state": "MA",
    "long": -72.57103,
    "lat": 42.10761
  },
  {
    "loc_id": 5.0,
    "title": "Gray House, Inc.",
    "type": "Agency",
    "street1": "22 Sheldon Street",
    "city": "Springfield",
    "zip": "01107-1915",
    "state": "MA",
    "long": -72.60714,
    "lat": 42.11496
  },
  {
    "loc_id": 6.0,
    "title": "Martin Luther King, Jr. Family Services, Inc.",
    "type": "Agency",
    "street1": "3 Rutland Street",
    "city": "Springfield",
    "zip": "01109",
    "state": "MA",
    "long": -72.56094,
    "lat": 42.11247
  },
  {
    "loc_id": 7.0,
    "title": "The Salvation Army Operating through its Greenfield Corps",
    "type": "Agency",
    "street1": "72 Chapman Street",
    "city": "Greenfield",
    "zip": "01301-2417",
    "state": "MA",
    "long": -72.6034,
    "lat": 42.5902
  },
  {
    "loc_id": 8.0,
    "title": "The Salvation Army operating through its North Adams Corps",
    "type": "Agency",
    "street1": "393 River Street",
    "city": "North Adams",
    "zip": "01247-3210",
    "state": "MA",
    "long": -73.12175,
    "lat": 42.70399
  },
  {
    "loc_id": 9.0,
    "title": "The Salvation Army operating through its Springfield Corps 2X per Month",
    "type": "Agency",
    "street1": "170 Pearl Street",
    "city": "Springfield",
    "zip": "01105-1223",
    "state": "MA",
    "long": -72.58445,
    "lat": 42.10947
  },
  {
    "loc_id": 10.0,
    "title": "First Congregational Church",
    "type": "Agency",
    "street1": "429 Main Street",
    "city": "Ashfield",
    "zip": "01330",
    "state": "MA",
    "long": -72.79104,
    "lat": 42.52666
  },
  {
    "loc_id": 11.0,
    "title": "Community Survival Center",
    "type": "Agency",
    "street1": "240 Main Street",
    "city": "Indian Orchard",
    "zip": "01151-1509",
    "state": "MA",
    "long": -72.49892,
    "lat": 42.15945
  },
  {
    "loc_id": 12.0,
    "title": "Trinity Episcopal Church 2x per Month",
    "type": "Agency",
    "street1": "20 Park Street",
    "city": "Ware",
    "zip": "01082",
    "state": "MA",
    "long": -72.23711,
    "lat": 42.26074
  },
  {
    "loc_id": 13.0,
    "title": "ServiceNet, Inc.",
    "type": "Agency",
    "street1": "1307 North Street",
    "city": "Pittsfield",
    "zip": "01201",
    "state": "MA",
    "long": -73.24651,
    "lat": 42.48037
  },
  {
    "loc_id": 14.0,
    "title": "Parish Cupboard, Inc.",
    "type": "Agency",
    "street1": "738 Main Street",
    "city": "West Springfield",
    "zip": "01089-4243",
    "state": "MA",
    "long": -72.60618,
    "lat": 42.10024
  },
  {
    "loc_id": 15.0,
    "title": "Alianza DV Services",
    "type": "Agency",
    "street1": "214 Oak Street",
    "city": "Holyoke",
    "zip": "01040-3236",
    "state": "MA",
    "long": -72.61718,
    "lat": 42.20656
  },
  {
    "loc_id": 16.0,
    "title": "Community Action!",
    "type": "Agency",
    "street1": "156 Main Street",
    "city": "Greenfield",
    "zip": "01301-2406",
    "state": "MA",
    "long": -72.60374,
    "lat": 42.5879
  },
  {
    "loc_id": 17.0,
    "title": "Community Action!",
    "type": "Agency",
    "street1": "51 Maple Street",
    "city": "Shelburne Falls",
    "zip": "01370-1114",
    "state": "MA",
    "long": -72.73247,
    "lat": 42.60696
  },
  {
    "loc_id": 18.0,
    "title": "Pentecostal Church Ebenezer Assemblies of God, Inc.",
    "type": "Agency",
    "street1": "200 Main Street",
    "city": "Holyoke",
    "zip": "01040-6469",
    "state": "MA",
    "long": -72.6048,
    "lat": 42.2017
  },
  {
    "loc_id": 19.0,
    "title": "E.Longmeadow Senior Friendship Club",
    "type": "Agency",
    "street1": "328 North Main Street",
    "city": "East Longmeadow",
    "zip": "01028-1813",
    "state": "MA",
    "long": -72.52295,
    "lat": 42.07612
  },
  {
    "loc_id": 20.0,
    "title": "St. Stephen's Parish",
    "type": "Agency",
    "street1": "67 East Street",
    "city": "Pittsfield",
    "zip": "01201-5313",
    "state": "MA",
    "long": -73.2524,
    "lat": 42.44881
  },
  {
    "loc_id": 21.0,
    "title": "Easthampton Congregational Church",
    "type": "Agency",
    "street1": "112 Main Street",
    "city": "Easthampton",
    "zip": "01027-2023",
    "state": "MA",
    "long": -72.67261,
    "lat": 42.26998
  },
  {
    "loc_id": 22.0,
    "title": "All Nation Church of God",
    "type": "Agency",
    "street1": "70 Leete Street",
    "city": "Springfield",
    "zip": "01108",
    "state": "MA",
    "long": -72.57741,
    "lat": 42.08849
  },
  {
    "loc_id": 23.0,
    "title": "People's Pantry",
    "type": "Agency",
    "street1": "5 Taconic Ave",
    "city": "Great Barrington",
    "zip": "01230-9070",
    "state": "MA",
    "long": -73.36459,
    "lat": 42.19289
  },
  {
    "loc_id": 24.0,
    "title": "Mission Center New Jerusalem",
    "type": "Agency",
    "street1": "625 Front Street",
    "city": "Chicopee",
    "zip": "01013",
    "state": "MA",
    "long": -72.59337,
    "lat": 42.14836
  },
  {
    "loc_id": 25.0,
    "title": "First Congregational Church",
    "type": "Agency",
    "street1": "371 Old Dalton Rd",
    "city": "Hinsdale",
    "zip": "01235",
    "state": "MA",
    "long": -73.12731,
    "lat": 42.44622
  },
  {
    "loc_id": 26.0,
    "title": "Revival Time Evangelistic Center",
    "type": "Agency",
    "street1": "120 Florence Street",
    "city": "Springfield",
    "zip": "01105",
    "state": "MA",
    "long": -72.56816,
    "lat": 42.10029
  },
  {
    "loc_id": 27.0,
    "title": "Community Bible Church",
    "type": "Agency",
    "street1": "160 Bridges Road",
    "city": "Williamstown",
    "zip": "01267",
    "state": "MA",
    "long": -73.19841,
    "lat": 42.73182
  },
  {
    "loc_id": 28.0,
    "title": "Evangel Assembly of God",
    "type": "Agency",
    "street1": "348 Stony Hill Road",
    "city": "Wilbraham",
    "zip": "01095",
    "state": "MA",
    "long": -72.46797,
    "lat": 42.13907
  },
  {
    "loc_id": 29.0,
    "title": "Our Community Food Pantry, Inc.",
    "type": "Agency",
    "street1": "220 College Highway",
    "city": "Southwick",
    "zip": "01077",
    "state": "MA",
    "long": -72.78517,
    "lat": 42.02769
  },
  {
    "loc_id": 30.0,
    "title": "St. Vincent de Paul Society- Westfield",
    "type": "Agency",
    "street1": "30 Bartlett Street",
    "city": "Westfield",
    "zip": "01085",
    "state": "MA",
    "long": -72.74604,
    "lat": 42.12579
  },
  {
    "loc_id": 31.0,
    "title": "Gethsemane Church of Jesus Christ, Inc.",
    "type": "Agency",
    "street1": "47 Harvey Street",
    "city": "Springfield",
    "zip": "01119",
    "state": "MA",
    "long": -72.52314,
    "lat": 42.1389
  },
  {
    "loc_id": 32.0,
    "title": "Clinical & Support Options, Inc.",
    "type": "Agency",
    "street1": "755 Worthington Street",
    "city": "Springfield",
    "zip": "01105",
    "state": "MA",
    "long": -72.58489,
    "lat": 42.10991
  },
  {
    "loc_id": 33.0,
    "title": "Gandara Mental Health Center",
    "type": "Agency",
    "street1": "18 Gaucher Street",
    "city": "Springfield",
    "zip": "01109",
    "state": "MA",
    "long": -72.55055,
    "lat": 42.11676
  },
  {
    "loc_id": 34.0,
    "title": "Gray House, Inc.",
    "type": "Agency",
    "street1": "22 Sheldon Street",
    "city": "Springfield",
    "zip": "01107-1915",
    "state": "MA",
    "long": -72.60714,
    "lat": 42.11496
  },
  {
    "loc_id": 35.0,
    "title": "Martin Luther King, Jr. Family Services, Inc.",
    "type": "Agency",
    "street1": "3 Rutland Street",
    "city": "Springfield",
    "zip": "01109",
    "state": "MA",
    "long": -72.56094,
    "lat": 42.11247
  },
  {
    "loc_id": 36.0,
    "title": "Providence Ministries",
    "type": "Agency",
    "street1": "56 Cabot Street",
    "city": "Holyoke",
    "zip": "01040-6002",
    "state": "MA",
    "long": -72.60637,
    "lat": 42.19918
  },
  {
    "loc_id": 37.0,
    "title": "Providence Ministries",
    "type": "Agency",
    "street1": "51 Hamilton Street",
    "city": "Holyoke",
    "zip": "01040",
    "state": "MA",
    "long": -72.60683,
    "lat": 42.19847
  },
  {
    "loc_id": 38.0,
    "title": "The Salvation Army operating through its Holyoke Corps",
    "type": "Agency",
    "street1": "271 Appleton Street",
    "city": "Holyoke",
    "zip": "01040-4933",
    "state": "MA",
    "long": -72.60911,
    "lat": 42.20478
  },
  {
    "loc_id": 39.0,
    "title": "Greater Westfield Food Pantry",
    "type": "Agency",
    "street1": "101 Meadow Street",
    "city": "Westfield",
    "zip": "01085-3292",
    "state": "MA",
    "long": -72.74193,
    "lat": 42.12407
  },
  {
    "loc_id": 40.0,
    "title": "St. John's Congregational Church",
    "type": "Agency",
    "street1": "45 Hancock Street",
    "city": "Springfield",
    "zip": "01109-3648",
    "state": "MA",
    "long": -72.56789,
    "lat": 42.10876
  },
  {
    "loc_id": 41.0,
    "title": "Christian Pentecostal Church",
    "type": "Agency",
    "street1": "96 Cabot Street",
    "city": "Holyoke",
    "zip": "01040-6060",
    "state": "MA",
    "long": -72.60773,
    "lat": 42.20021
  },
  {
    "loc_id": 42.0,
    "title": "Victory Temple COGIC",
    "type": "Agency",
    "street1": "521 Union Street",
    "city": "West Springfield",
    "zip": "01089-4112",
    "state": "MA",
    "long": -72.61251,
    "lat": 42.10062
  },
  {
    "loc_id": 43.0,
    "title": "Holy Redeemer Cathedral",
    "type": "Agency",
    "street1": "44 Prospect Street",
    "city": "Springfield",
    "zip": "01107-1736",
    "state": "MA",
    "long": -72.59901,
    "lat": 42.11626
  },
  {
    "loc_id": 44.0,
    "title": "FBWM - Montague",
    "type": "Brown Bag",
    "street1": "62 5th Street",
    "city": "Turners Falls",
    "zip": "01376",
    "state": "MA",
    "long": -72.55775,
    "lat": 42.60637
  },
  {
    "loc_id": 45.0,
    "title": "FBWM - Erving",
    "type": "Brown Bag",
    "street1": "Senior Center 1 Care Drive",
    "city": "Erving",
    "zip": "01373",
    "state": "MA",
    "long": -72.48227,
    "lat": 42.59012
  },
  {
    "loc_id": 46.0,
    "title": "FBWM - Northfield",
    "type": "Brown Bag",
    "street1": "Northfield Town Hall  69 Main St",
    "city": "Northfield",
    "zip": "01360",
    "state": "MA",
    "long": -72.4556,
    "lat": 42.69352
  },
  {
    "loc_id": 47.0,
    "title": "FBWM - Greenfield",
    "type": "Brown Bag",
    "street1": "35 Pleasant Street",
    "city": "Greenfield",
    "zip": "01301",
    "state": "MA",
    "long": -72.60087,
    "lat": 42.59157
  },
  {
    "loc_id": 48.0,
    "title": "FBWM - Deerfield",
    "type": "Brown Bag",
    "street1": "Town Hall - 8 Conway Street",
    "city": "South Deerfield",
    "zip": "01373",
    "state": "MA",
    "long": -72.60836,
    "lat": 42.47945
  },
  {
    "loc_id": 49.0,
    "title": "FBWM - Amherst",
    "type": "Brown Bag",
    "street1": "Bangs Community Center 70 Boltwood Walk",
    "city": "Amherst",
    "zip": "01002",
    "state": "MA",
    "long": -72.51841,
    "lat": 42.37692
  },
  {
    "loc_id": 50.0,
    "title": "FBWM - Northampton",
    "type": "Brown Bag",
    "street1": "Senior Center, 67 Conz Street",
    "city": "Northampton",
    "zip": "01060",
    "state": "MA",
    "long": -72.62852,
    "lat": 42.31383
  },
  {
    "loc_id": 51.0,
    "title": "FBWM - Belchertown",
    "type": "Brown Bag",
    "street1": "Senior Center 60 State Street",
    "city": "Belchertown",
    "zip": "01007",
    "state": "MA",
    "long": -72.4143,
    "lat": 42.27189
  },
  {
    "loc_id": 52.0,
    "title": "FBWM - Westfield",
    "type": "Brown Bag",
    "street1": "45 Noble Street",
    "city": "Westfield",
    "zip": "01085",
    "state": "MA",
    "long": -72.73799,
    "lat": 42.11691
  },
  {
    "loc_id": 53.0,
    "title": "FBWM - Southwick",
    "type": "Brown Bag",
    "street1": "Senior Center 458 College Highway",
    "city": "Southwick",
    "zip": "01077",
    "state": "MA",
    "long": -72.77161,
    "lat": 42.05339
  },
  {
    "loc_id": 54.0,
    "title": "FBWM - Granville",
    "type": "Brown Bag",
    "street1": "Southwick Brown Bag Site",
    "city": "Southwick",
    "zip": "01077",
    "state": "MA",
    "long": -72.76542,
    "lat": 42.05893
  },
  {
    "loc_id": 55.0,
    "title": "FBWM - Easthampton",
    "type": "Brown Bag",
    "street1": "Community Center 12 Clark  St",
    "city": "Easthampton",
    "zip": "01027",
    "state": "MA",
    "long": -72.66198,
    "lat": 42.26381
  },
  {
    "loc_id": 56.0,
    "title": "FBWM - Shelburne Falls",
    "type": "Brown Bag",
    "street1": "Senior Center, 7 Main Street",
    "city": "Shelburne Falls",
    "zip": "01370",
    "state": "MA",
    "long": -72.73783,
    "lat": 42.60378
  },
  {
    "loc_id": 57.0,
    "title": "FBWM - Charlemont",
    "type": "Brown Bag",
    "street1": "Senior Center 175 Main Street",
    "city": "Charlemont",
    "zip": "01339",
    "state": "MA",
    "long": -72.86881,
    "lat": 42.62821
  },
  {
    "loc_id": 58.0,
    "title": "FBWM - Hadley",
    "type": "Brown Bag",
    "street1": "Senior Center 46 Middle Street",
    "city": "Hadley",
    "zip": "01035",
    "state": "MA",
    "long": -72.58844,
    "lat": 42.34293
  },
  {
    "loc_id": 59.0,
    "title": "FBWM - Hatfield",
    "type": "Brown Bag",
    "street1": "Hatfield Senior Center 59 Main Street",
    "city": "Hatfield",
    "zip": "01038",
    "state": "MA",
    "long": -72.59994,
    "lat": 42.37009
  },
  {
    "loc_id": 60.0,
    "title": "FBWM - Orange",
    "type": "Brown Bag",
    "street1": "Senior Center, 135 East Main Street",
    "city": "Orange",
    "zip": "01364",
    "state": "MA",
    "long": -72.30335,
    "lat": 42.59072
  },
  {
    "loc_id": 61.0,
    "title": "FBWM - Athol",
    "type": "Brown Bag",
    "street1": "82 Freedom Street",
    "city": "Athol",
    "zip": "01331",
    "state": "MA",
    "long": -72.23381,
    "lat": 42.59249
  },
  {
    "loc_id": 62.0,
    "title": "FBWM - Williamsburg",
    "type": "Brown Bag",
    "street1": "Senior Center  141 Main St",
    "city": "Haydenville",
    "zip": "01039",
    "state": "MA",
    "long": -72.70224,
    "lat": 42.37496
  },
  {
    "loc_id": 63.0,
    "title": "FBWM - Chesterfield",
    "type": "Brown Bag",
    "street1": "Williamsburg Brown Bag Site",
    "city": "Haydenville",
    "zip": "01039",
    "state": "MA",
    "long": -72.69217,
    "lat": 42.43424
  },
  {
    "loc_id": 64.0,
    "title": "FBWM - Huntington",
    "type": "Brown Bag",
    "street1": "Stanton Hall  26 Russell Rd",
    "city": "Huntington",
    "zip": "01050",
    "state": "MA",
    "long": -72.87955,
    "lat": 42.23406
  },
  {
    "loc_id": 65.0,
    "title": "FBWM - Chester",
    "type": "Brown Bag",
    "street1": "Huntington Brown Bag Site",
    "city": "Chester",
    "zip": "01011",
    "state": "MA",
    "long": -72.9472,
    "lat": 42.25624
  },
  {
    "loc_id": 66.0,
    "title": "FBWM - Otis",
    "type": "Brown Bag",
    "street1": "Huntington Brown Bag Site",
    "city": "Otis",
    "zip": "01253",
    "state": "MA",
    "long": -71.80839,
    "lat": 42.29231
  },
  {
    "loc_id": 67.0,
    "title": "FBWM - South Hadley",
    "type": "Brown Bag",
    "street1": "Senior Center 45 Dayton  Street",
    "city": "South Hadley",
    "zip": "01075",
    "state": "MA",
    "long": -72.58494,
    "lat": 42.23732
  },
  {
    "loc_id": 68.0,
    "title": "FBWM - Granby",
    "type": "Brown Bag",
    "street1": "10 West State Street",
    "city": "Granby",
    "zip": "01033",
    "state": "MA",
    "long": -72.5514,
    "lat": 42.24143
  },
  {
    "loc_id": 69.0,
    "title": "FBWM-Springfield Urban League",
    "type": "Brown Bag",
    "street1": "Dunbar Center, 33 Oak Street",
    "city": "Springfield",
    "zip": "01109",
    "state": "MA",
    "long": -72.57344,
    "lat": 42.10824
  },
  {
    "loc_id": 70.0,
    "title": "FBWM - Russell",
    "type": "Brown Bag",
    "street1": "Huntington Brown Bag Site",
    "city": "Russell",
    "zip": "01071",
    "state": "MA",
    "long": -72.85683,
    "lat": 42.2042
  },
  {
    "loc_id": 71.0,
    "title": "FBWM - Adams",
    "type": "Brown Bag",
    "street1": "Adams Visitor Center, 3 Hoosac Street",
    "city": "Adams",
    "zip": "01220",
    "state": "MA",
    "long": -73.11789,
    "lat": 42.6248
  },
  {
    "loc_id": 72.0,
    "title": "FBWM - North Adams",
    "type": "Brown Bag",
    "street1": "Mary Spitzer Center 116 Ashland St",
    "city": "North Adams",
    "zip": "01247",
    "state": "MA",
    "long": -73.1097,
    "lat": 42.69564
  },
  {
    "loc_id": 73.0,
    "title": "FBWM - Springfield Edgewater",
    "type": "Brown Bag",
    "street1": "Edgewater Apartments 101 Lowell Street",
    "city": "Springfield",
    "zip": "01109",
    "state": "MA",
    "long": -72.61352,
    "lat": 42.11172
  },
  {
    "loc_id": 74.0,
    "title": "FBWM - Pittsfield",
    "type": "Brown Bag",
    "street1": "Senior Center, 330 North Street",
    "city": "Pittsfield",
    "zip": "01201",
    "state": "MA",
    "long": -73.25161,
    "lat": 42.45316
  },
  {
    "loc_id": 75.0,
    "title": "FBWM - Indian Orchard",
    "type": "Brown Bag",
    "street1": "Citizen's Council 117 Main Street",
    "city": "Indian Orchard",
    "zip": "01151",
    "state": "MA",
    "long": -72.50512,
    "lat": 42.1597
  },
  {
    "loc_id": 76.0,
    "title": "FBWM - Great Barrington",
    "type": "Brown Bag",
    "street1": "Senior Center 909 Main St",
    "city": "Great Barrington",
    "zip": "01230",
    "state": "MA",
    "long": -73.36134,
    "lat": 42.17561
  },
  {
    "loc_id": 77.0,
    "title": "FBWM - Springfield Riverview",
    "type": "Brown Bag",
    "street1": "310 Plainfield street",
    "city": "Springfield",
    "zip": "01107",
    "state": "MA",
    "long": -72.61356,
    "lat": 42.11627
  },
  {
    "loc_id": 78.0,
    "title": "FBWM - Springfield Saab Court",
    "type": "Brown Bag",
    "street1": "Community Room 18 Saab Court",
    "city": "Springfield",
    "zip": "01104",
    "state": "MA",
    "long": -72.59289,
    "lat": 42.11167
  },
  {
    "loc_id": 79.0,
    "title": "FBWM - Holyoke",
    "type": "Brown Bag",
    "street1": "Holyoke Senior Ctr 291 Pine Street",
    "city": "Holyoke",
    "zip": "01040",
    "state": "MA",
    "long": -72.61884,
    "lat": 42.20335
  },
  {
    "loc_id": 80.0,
    "title": "FBWM - Lenox",
    "type": "Brown Bag",
    "street1": "Community Center 65 Walker Street",
    "city": "Lenox",
    "zip": "01240",
    "state": "MA",
    "long": -73.28251,
    "lat": 42.35564
  },
  {
    "loc_id": 81.0,
    "title": "FBWM - Ludlow",
    "type": "Brown Bag",
    "street1": "Senior Center  37 Chestnut Street",
    "city": "Ludlow",
    "zip": "01056",
    "state": "MA",
    "long": -72.48213,
    "lat": 42.15801
  },
  {
    "loc_id": 82.0,
    "title": "FBWM - Chicopee",
    "type": "Brown Bag",
    "street1": "McKinley House  38 Asinof Ave",
    "city": "Chicopee",
    "zip": "01013",
    "state": "MA",
    "long": -72.60269,
    "lat": 42.13679
  },
  {
    "loc_id": 83.0,
    "title": "FBWM - Stockbridge",
    "type": "Brown Bag",
    "street1": "Heaton Court, 5 Pine Street",
    "city": "Stockbridge",
    "zip": "01262",
    "state": "MA",
    "long": -73.3108,
    "lat": 42.28472
  },
  {
    "loc_id": 84.0,
    "title": "FBWM-Springfield Jordan Senior Center",
    "type": "Brown Bag",
    "street1": "Senior Center  1476 Roosevelt Avenue",
    "city": "Springfield",
    "zip": "01109",
    "state": "MA",
    "long": -72.55093,
    "lat": 42.12237
  },
  {
    "loc_id": 85.0,
    "title": "FBWM - Chicopee Moose",
    "type": "Brown Bag",
    "street1": "Moose Family Center, 244 Fuller Road",
    "city": "Chicopee",
    "zip": "01013",
    "state": "MA",
    "long": -72.61144,
    "lat": 42.14247
  },
  {
    "loc_id": 86.0,
    "title": "FBWM - Palmer",
    "type": "Brown Bag",
    "street1": "Senior Center 1029 Central Street",
    "city": "Palmer",
    "zip": "01069",
    "state": "MA",
    "long": -72.32721,
    "lat": 42.15664
  },
  {
    "loc_id": 87.0,
    "title": "FBWM - Springfield Forest Park",
    "type": "Brown Bag",
    "street1": "25 Barney Lane",
    "city": "Springfield",
    "zip": "01108",
    "state": "MA",
    "long": -72.55756,
    "lat": 42.08355
  },
  {
    "loc_id": 88.0,
    "title": "FBWM - Ware",
    "type": "Brown Bag",
    "street1": "1 Robbins Road",
    "city": "Ware",
    "zip": "01082",
    "state": "MA",
    "long": -72.25574,
    "lat": 42.25238
  },
  {
    "loc_id": 89.0,
    "title": "FBWM - Brimfield",
    "type": "Brown Bag",
    "street1": "Brimfield Senior Center - 20 Main Street",
    "city": "Brimfield",
    "zip": "01010",
    "state": "MA",
    "long": -72.20384,
    "lat": 42.12263
  },
  {
    "loc_id": 90.0,
    "title": "FBWM - Lee",
    "type": "Brown Bag",
    "street1": "21 Crossway Street",
    "city": "Lee",
    "zip": "01238",
    "state": "MA",
    "long": -73.24796,
    "lat": 42.30778
  },
  {
    "loc_id": 91.0,
    "title": "FBWM-Washington House Westfield",
    "type": "Brown Bag",
    "street1": "16 Washington Street",
    "city": "Westfield",
    "zip": "01085",
    "state": "MA",
    "long": -72.75275,
    "lat": 42.12149
  },
  {
    "loc_id": 92.0,
    "title": "FBWM - West Springfield Mercy Life",
    "type": "Brown Bag",
    "street1": "2112 Riverdale Street, Suite 1",
    "city": "West Springfield",
    "zip": "01089",
    "state": "MA",
    "long": -72.63334,
    "lat": 42.16051
  },
  {
    "loc_id": 93.0,
    "title": "FBWM - Wilbraham",
    "type": "Brown Bag",
    "street1": "45B Post Office Park",
    "city": "Wilbraham",
    "zip": "01095",
    "state": "MA",
    "long": -72.44218,
    "lat": 42.15161
  },
  {
    "loc_id": 94.0,
    "title": "FBWM - Agawam",
    "type": "Brown Bag",
    "street1": "954 Main Street",
    "city": "Agawam",
    "zip": "01001",
    "state": "MA",
    "long": -72.61771,
    "lat": 42.06095
  },
  {
    "loc_id": 95.0,
    "title": "FBWM - Hampden",
    "type": "Brown Bag",
    "street1": "104 Allen Street",
    "city": "Hampden",
    "zip": "01036",
    "state": "MA",
    "long": -72.44605,
    "lat": 42.06395
  },
  {
    "loc_id": 96.0,
    "title": "FBWM - West Springfield Senior Center",
    "type": "Brown Bag",
    "street1": "128 Park Street",
    "city": "West Springfield",
    "zip": "01089",
    "state": "MA",
    "long": -72.6201,
    "lat": 42.1063
  },
  {
    "loc_id": 97.0,
    "title": "Adams Council on Aging",
    "type": "Mobile Food Bank",
    "street1": "3 Hoosac St.",
    "city": "Adams",
    "zip": "01220",
    "state": "MA",
    "long": -73.11789,
    "lat": 42.6248
  },
  {
    "loc_id": 98.0,
    "title": "Brien Center",
    "type": "Mobile Food Bank",
    "street1": "124 American Legion Dr.",
    "city": "North Adams",
    "zip": "01247",
    "state": "MA",
    "long": -73.11188,
    "lat": 42.69574
  },
  {
    "loc_id": 99.0,
    "title": "CHP Dalton",
    "type": "Mobile Food Bank",
    "street1": "400 Main St.",
    "city": "Dalton",
    "zip": "01226",
    "state": "MA",
    "long": -73.17184,
    "lat": 42.47321
  },
  {
    "loc_id": 100.0,
    "title": "Community Health Programs",
    "type": "Mobile Food Bank",
    "street1": "444 Stockbridge Rd.",
    "city": "Great Barrington",
    "zip": "01230",
    "state": "MA",
    "long": -73.34232,
    "lat": 42.21951
  },
  {
    "loc_id": 101.0,
    "title": "Montague Council on Aging",
    "type": "Mobile Food Bank",
    "street1": "62 5th St.",
    "city": "Turner Falls",
    "zip": "01376",
    "state": "MA",
    "long": -72.55775,
    "lat": 42.60637
  },
  {
    "loc_id": 102.0,
    "title": "Oak Courts Location",
    "type": "Mobile Food Bank",
    "street1": "7 Oak Courts",
    "city": "Greenfield",
    "zip": "01301",
    "state": "MA",
    "long": -72.61258,
    "lat": 42.60148
  },
  {
    "loc_id": 103.0,
    "title": "Allen Street (Iglesia Bautista Renovacion)",
    "type": "Mobile Food Bank",
    "street1": "1602 Allen St.",
    "city": "Springfield",
    "zip": "01118",
    "state": "MA",
    "long": -72.50691,
    "lat": 42.0929
  },
  {
    "loc_id": 104.0,
    "title": "Beaudoin Village/Yoerg Circle",
    "type": "Mobile Food Bank",
    "street1": "40 Leary Dr.",
    "city": "Holyoke",
    "zip": "01040",
    "state": "MA",
    "long": -72.64246,
    "lat": 42.20283
  },
  {
    "loc_id": 105.0,
    "title": "Broadway St., Mobile",
    "type": "Mobile Food Bank",
    "street1": "50 Broadway St.",
    "city": "Chicopee",
    "zip": "01020",
    "state": "MA",
    "long": -72.5815,
    "lat": 42.15761
  },
  {
    "loc_id": 106.0,
    "title": "Dakin Humane Society (Springfield)",
    "type": "Mobile Food Bank",
    "street1": "171 Union St.",
    "city": "Springfield",
    "zip": "01105",
    "state": "MA",
    "long": -72.58261,
    "lat": 42.09976
  },
  {
    "loc_id": 107.0,
    "title": "Home City Housing",
    "type": "Mobile Food Bank",
    "street1": "7 Halsey St.",
    "city": "Springfield",
    "zip": "01104",
    "state": "MA",
    "long": -72.58882,
    "lat": 42.11504
  },
  {
    "loc_id": 108.0,
    "title": "Martin Luther King Jr. Family Services",
    "type": "Mobile Food Bank",
    "street1": "3 Rutland St.",
    "city": "Springfield",
    "zip": "01109",
    "state": "MA",
    "long": -72.56094,
    "lat": 42.11247
  },
  {
    "loc_id": 109.0,
    "title": "Mount Holyoke Management Company",
    "type": "Mobile Food Bank",
    "street1": "531 South Summer St.",
    "city": "Holyoke",
    "zip": "01040",
    "state": "MA",
    "long": -72.60532,
    "lat": 42.19735
  },
  {
    "loc_id": 110.0,
    "title": "Moxon Apartments",
    "type": "Mobile Food Bank",
    "street1": "24 Moxon St.",
    "city": "Indian Orchard",
    "zip": "01151",
    "state": "MA",
    "long": -72.49957,
    "lat": 42.15761
  },
  {
    "loc_id": 111.0,
    "title": "North End Mobile/Diocese of Springfield",
    "type": "Mobile Food Bank",
    "street1": "50 Waverly St.",
    "city": "Springfield",
    "zip": "01107",
    "state": "MA",
    "long": -72.60576,
    "lat": 42.1187
  },
  {
    "loc_id": 112.0,
    "title": "Olde Holyoke Development Corp.",
    "type": "Mobile Food Bank",
    "street1": "70 North Bridge St.",
    "city": "Holyoke",
    "zip": "01040",
    "state": "MA",
    "long": -72.59644,
    "lat": 42.2049
  },
  {
    "loc_id": 113.0,
    "title": "Open Pantry/Diocese of Springfield",
    "type": "Mobile Food Bank",
    "street1": "260 State St.",
    "city": "Springfield",
    "zip": "01103",
    "state": "MA",
    "long": -72.58397,
    "lat": 42.10433
  },
  {
    "loc_id": 114.0,
    "title": "Providence Ministries",
    "type": "Mobile Food Bank",
    "street1": "53 Cabot St.",
    "city": "Holyoke",
    "zip": "01040",
    "state": "MA",
    "long": -72.6056,
    "lat": 42.19921
  },
  {
    "loc_id": 115.0,
    "title": "Revival Time Evangelistic Center",
    "type": "Mobile Food Bank",
    "street1": "116 Florence St.",
    "city": "Springfield",
    "zip": "01105",
    "state": "MA",
    "long": -72.56843,
    "lat": 42.10026
  },
  {
    "loc_id": 116.0,
    "title": "The Salvation Army",
    "type": "Mobile Food Bank",
    "street1": "271 Appleton St.",
    "city": "Holyoke",
    "zip": "01040",
    "state": "MA",
    "long": -72.60911,
    "lat": 42.20478
  },
  {
    "loc_id": 117.0,
    "title": "Saint Paul Episcopal Church",
    "type": "Mobile Food Bank",
    "street1": "485 Appleton St.",
    "city": "Holyoke",
    "zip": "01040",
    "state": "MA",
    "long": -72.61701,
    "lat": 42.2094
  },
  {
    "loc_id": 118.0,
    "title": "Springfield Housing Authority (Brightwood)",
    "type": "Mobile Food Bank",
    "street1": "82 Division St.",
    "city": "Springfield",
    "zip": "01107",
    "state": "MA",
    "long": -72.61677,
    "lat": 42.1162
  },
  {
    "loc_id": 119.0,
    "title": "Trinity United Methodist Church",
    "type": "Mobile Food Bank",
    "street1": "361 Sumner Ave.",
    "city": "Springfield",
    "zip": "01108",
    "state": "MA",
    "long": -72.56284,
    "lat": 42.08507
  },
  {
    "loc_id": 120.0,
    "title": "Urban League",
    "type": "Mobile Food Bank",
    "street1": "33 Oak St.",
    "city": "Springfield",
    "zip": "01109",
    "state": "MA",
    "long": -72.57344,
    "lat": 42.10824
  },
  {
    "loc_id": 121.0,
    "title": "Westfield Mobile Food Bank",
    "type": "Mobile Food Bank",
    "street1": "60 Broad St.",
    "city": "Westfield",
    "zip": "01085",
    "state": "MA",
    "long": -72.74801,
    "lat": 42.11738
  },
  {
    "loc_id": 122.0,
    "title": "Our Lady of the Valley",
    "type": "Mobile Food Bank",
    "street1": "33 Adams St.",
    "city": "Easthampton",
    "zip": "01027",
    "state": "MA",
    "long": -72.66475,
    "lat": 42.26791
  },
  {
    "loc_id": 123.0,
    "title": "Grenville Park",
    "type": "Mobile Food Bank",
    "street1": "73 Church St.",
    "city": "Ware",
    "zip": "01082",
    "state": "MA",
    "long": -72.23533,
    "lat": 42.26492
  },
  {
    "loc_id": 124.0,
    "title": "The Boulders",
    "type": "Mobile Food Bank",
    "street1": "156 Brittany Manor Dr.",
    "city": "Amherst",
    "zip": "01002",
    "state": "MA",
    "long": -72.52884,
    "lat": 42.34877
  },
  {
    "loc_id": 125.0,
    "title": "Coca Cola",
    "type": "Pick-up",
    "street1": "45 Industrial Dr.",
    "city": " Northampton",
    "zip": "01060",
    "state": "MA",
    "long": -72.62648,
    "lat": 42.3342
  },
  {
    "loc_id": 126.0,
    "title": "Greenleaf Foods",
    "type": "Pick-up",
    "street1": "153 Industrial Boulevard",
    "city": " Turners Falls",
    "zip": "01376",
    "state": "MA",
    "long": -72.51704,
    "lat": 42.60106
  },
  {
    "loc_id": 127.0,
    "title": "Stop and Shop",
    "type": "Pick-up",
    "street1": "228 King St.",
    "city": " Northampton",
    "zip": "01060",
    "state": "MA",
    "long": -72.63383,
    "lat": 42.32869
  },
  {
    "loc_id": 128.0,
    "title": "C&S",
    "type": "Pick-up",
    "street1": "142 Elm St.",
    "city": " Hatfield",
    "zip": "01038",
    "state": "MA",
    "long": -72.63174,
    "lat": 42.36337
  },
  {
    "loc_id": 129.0,
    "title": "C&S",
    "type": "Pick-up",
    "street1": "50 Summit Lock Rd.",
    "city": " Westfield",
    "zip": "01085",
    "state": "MA",
    "long": -72.74137,
    "lat": 42.178
  },
  {
    "loc_id": 130.0,
    "title": "Wendolowski Farm",
    "type": "Pick-up",
    "street1": "118 Prospect St.",
    "city": " Hatfield",
    "zip": "01038",
    "state": "MA",
    "long": -72.60993,
    "lat": 42.3827
  },
  {
    "loc_id": 131.0,
    "title": "Atlas Farm",
    "type": "Pick-up",
    "street1": "635 River Rd.",
    "city": " Deerfield",
    "zip": "01342",
    "state": "MA",
    "long": -72.56406,
    "lat": 42.54862
  },
  {
    "loc_id": 132.0,
    "title": "Riverland Farm",
    "type": "Pick-up",
    "street1": "206 River Rd.",
    "city": " Sunderland",
    "zip": "01375",
    "state": "MA",
    "long": -72.58448,
    "lat": 42.44604
  },
  {
    "loc_id": 133.0,
    "title": "Next Barn Over",
    "type": "Pick-up",
    "street1": "15 Lawrence Plain Rd.",
    "city": " Hadley",
    "zip": "01035",
    "state": "MA",
    "long": -72.57748,
    "lat": 42.32905
  },
  {
    "loc_id": 134.0,
    "title": "Warner Farm",
    "type": "Pick-up",
    "street1": "23 South Main St.",
    "city": " Sunderland",
    "zip": "01375",
    "state": "MA",
    "long": -72.58207,
    "lat": 42.46195
  },
  {
    "loc_id": 135.0,
    "title": "Kitchen Garden",
    "type": "Pick-up",
    "street1": "131 South Silver Ln.",
    "city": " Sunderland",
    "zip": "01375",
    "state": "MA",
    "long": -72.56448,
    "lat": 42.446
  },
  {
    "loc_id": 136.0,
    "title": "Red Fire Farm",
    "type": "Pick-up",
    "street1": "184 Meadow Rd.",
    "city": " Montague",
    "zip": "01351",
    "state": "MA",
    "long": -72.55946,
    "lat": 42.52891
  }
]